State/UT Name,Mine Name,Coal/ Lignite Production,Coal Mine Owner Name,Coal/Lignite,Govt Owned/Private,TypeofMine ,Latitude ,Longitude 
West Bengal,Ningah Colliery ,0.01,ECL,Coal,G,UG,23.6743,87.0333
West Bengal,Jhanjhara Project Colly,3.5,ECL,Coal,G,UG,23.668,87.2963
West Bengal,MAOHUSUDANPUR,0.04,ECL,Coal,G,UG,23.6338,87.2037
West Bengal, PARASCOLE(EAST) ,0.1,ECL,Coal,G,UG,23.6377,87.1951
West Bengal, PARASCOLE(WEST) ,0.07,ECL,Coal,G,UG,23.6405,87.1855
West Bengal,Jambad UG,0.16,ECL,Coal,G,UG,23.6517,87.1734
West Bengal,Khas Kajora,0.17,ECL,Coal,G,UG,23.6205,87.1926
West Bengal,Central Kajora,0.07,ECL,Coal,G,UG,23.6007,87.1874
West Bengal, NABAKJORA ,0.06,ECL,Coal,G,UG,23.6346,87.1793
West Bengal,Satgram Project,0.04,ECL,Coal,G,UG,23.6471,87.1594
West Bengal,EGARA & NARAYANKURI UNDER MAHABIR COLLIERY,0.08,ECL,Coal,G,UG,23.57341,87.10873
West Bengal,Satgram Incline ,0.03,ECL,Coal,G,UG,23.6827,87.0703
West Bengal,CHAPUIKHAS COLLIERY,0.03,ECL,Coal,G,UG,23.6545,87.0449
West Bengal,J K NAGAR,0.13,ECL,Coal,G,UG,23.649,87.067
West Bengal,PURE SEARSOLE,0.05,ECL,Coal,G,UG,23.6457,87.0872
West Bengal, AMRITNAGAR ,0.1,ECL,Coal,G,UG,23.6155,87.086
West Bengal, KUNUSTORIA ,0.11,ECL,Coal,G,UG,23.6499,87.1302
West Bengal, PARASEA ,0.16,ECL,Coal,G,UG,23.6517,87.1629
West Bengal, BELBAID,0.06,ECL,Coal,G,UG,23.6577,87.141
West Bengal, KHANDRA ,0.07,ECL,Coal,G,UG,23.6414,87.2228
West Bengal, SHYAMSUNOERPUR ,0.83,ECL,Coal,G,UG,23.6483,87.2575
West Bengal, KUMARDIH A ,0.09,ECL,Coal,G,UG,23.667,87.2625
West Bengal, TILABONI ,0.15,ECL,Coal,G,UG,23.6549,87.2821
West Bengal, SANKARPUR ,0.27,ECL,Coal,G,UG,23.6839,87.2382
West Bengal,BANKOLA,0.2,ECL,Coal,G,UG,23.6592,87.2367
West Bengal, CL JAMBAD COLLY ,0.05,ECL,Coal,G,UG,23.6543,87.1979
West Bengal, LOWER KENDA COTLY ,0.07,ECL,Coal,G,UG,23.67752975,87.1692848
West Bengal, CHORA 1O PIT COLLY ,0.04,ECL,Coal,G,UG,23.6783,87.2023
West Bengal,BAHULA,0.15,ECL,Coal,G,UG,23.6639,87.1811
West Bengal, CHORA 7&9 PIT COLLY ,0.1,ECL,Coal,G,UG,23.6749,87.1906
West Bengal, SIDULI COLLY ,0.09,ECL,Coal,G,UG,23.6499,87.2093
West Bengal, CHINAKURI-III ,0.06,ECL,Coal,G,UG,23.6853,86.8596
West Bengal, METHANI ,0.04,ECL,Coal,G,UG,23.6946,86.8902
West Bengal,Sodepur,0.02,ECL,Coal,G,UG,23.6882,86.8545
West Bengal, BEJDIH ,0.03,ECL,Coal,G,UG,23.6935,86.8753
West Bengal,NARSUMUDA,0.06,ECL,Coal,G,UG,23.6901,86.9149
West Bengal, PATMOHONA ,0.03,ECL,Coal,G,UG,23.6853,86.8903
West Bengal, DHEMOMAIN PIT ,0.03,ECL,Coal,G,UG,23.7046,86.9087
West Bengal, DHEMOMAIN INCLINE ,0.02,ECL,Coal,G,UG,23.7046,86.9087
West Bengal," MANOERBONI & SOUTH SAMLAAMALGATEO, MINE ",0.08,ECL,Coal,G,UG,23.7112,87.314
West Bengal, PANDAVESWAR ,0.1,ECL,Coal,G,UG,23.7183,87.2714
West Bengal, KOTTADIH UG ,0.35,ECL,Coal,G,UG,23.7233,87.2419
West Bengal, BONJEMEHARI (EXTN) ,0.41,ECL,Coal,G,OC,23.787,86.876
West Bengal, MOHANPUR (EXPN) ,1,ECL,Coal,G,OC,23.7867,86.951
West Bengal, GOURANOIH EXPN ,0.1,ECL,Coal,G,OC,23.8153,86.9947
West Bengal, DABAR PH III ,1.03,ECL,Coal,G,OC,23.7895,86.9173
West Bengal, ITAPARA ,0.05,ECL,Coal,G,OC,23.7879,86.9786
West Bengal,GOURANDIH BEGUNIA,1.02,ECL,Coal,G,OC,23.805,87.02553
West Bengal, KALIPAHARI OC PATCH A ,0.06,ECL,Coal,G,OC,23.6673,87.012
West Bengal, SONEPUR BAZARI PROJECT ,11.1,ECL,Coal,G,OC,23.7011,87.2054
West Bengal, JAMBAD ,0.59,ECL,Coal,G,OC,23.654,87.177
West Bengal, NORTH SEARSOLE ,0.65,ECL,Coal,G,OC,23.6626,87.1142
West Bengal,KHOTADIH OC,1.16,ECL,Coal,G,OC,23.7244,87.233
West Bengal,DALURBANDH,0.55,ECL,Coal,G,OC,23.7168,87.266
West Bengal,BHANORA W/B (UG & OC),0.48,ECL,Coal,G,Mixed,23.7276,86.9943
West Bengal,"MADHABPUR UG & MADHABPUR
OC",0.38,ECL,Coal,G,Mixed,23.6313,87.1746
West Bengal,NIMCHA COLLY,0.34,ECL,Coal,G,Mixed,23.7495,86.8572
West Bengal,BANSRA,0.73,ECL,Coal,G,Mixed,23.6296,87.1382
West Bengal,NAKRAKONDA.KUMARDIH B,0.18,ECL,Coal,G,Mixed,23.67963,87.28763
West Bengal,"CHORA BLOCK INCLINE,
SHANKARPUR OC &
BONBAHAL OC",0.74,ECL,Coal,G,Mixed,23.6729,87.2033
West Bengal,NEW KENDA UG & OC,0.16,ECL,Coal,G,Mixed,23.6657,87.1624
West Bengal,DAMAGORIA,0.14,BCCL,Coal,G,OC,23.7611,86.8531
West Bengal,MADHAIPUR,0.37,ECL,Coal,G,Mixed,23.7037,87.3467
West Bengal,Sarisatolli (CAPTIVE),1.856,CESC,Coal,P,OC,23.8012,87.0356
West Bengal,Ramnagar coal mine (CAPTIVE),0.23,SAIL,Coal,G,OC,23.7564,86.8359
West Bengal,Ardhagram Coal Mine (CAPTIVE),0.161,OCL Iron Steel Limited,Coal,P,OC,23.5827,87.0861
West Bengal, KALIDASPUR PROJECT ,0.09,ECL,Coal,G,UG,23.5939,87.0365
West Bengal, PARBELIA ,0.06,ECL,Coal,G,UG,23.6733,86.8257
West Bengal, DUBESWARI ,0.06,ECL,Coal,G,UG,23.6615,86.8235
West Bengal,Barjora Coal Mine ,0.4,WBPDCL,Coal,SG,OC,23.7454,87.2264
Jharkhand ,RAJMAHAL,17.37,ECL,Coal,G,OC,25.038,87.3538
Jharkhand ,HURRA 'C',0,ECL,Coal,G,OC,24.9867,87.3808
Jharkhand ,CHITRA EAST,2.05,ECL,Coal,G,OC,24.119,86.8636
Jharkhand ,Tasra (CAPTIVE),0.185,SAIL,Coal,G,OC,23.6532,86.4704
Jharkhand ,Jitpur (CAPTIVE),0.092,IISCO,Coal,G,OC,23.71510714,86.39069483
Jharkhand ,Chasnala (CAPTIVE),0.35,IISCO,Coal,G,OC,23.665,86.4568
Jharkhand , BADJNA ,0.07,ECL,Coal,G,UG,23.8004,86.6957
Jharkhand ,HARIAJAM,0.06,ECL,Coal,G,UG,23.7926,86.6903
Jharkhand ,LAKHIMATA,0.08,ECL,Coal,G,UG,23.7729,86.7314
Jharkhand ,SHAYAMPUR-B ,0.08,ECL,Coal,G,UG,23.7623,86.7321
Jharkhand ,KUMARDHUBI,0.03,ECL,Coal,G,UG,23.7464,86.7962
Jharkhand ,KHOODIA,0.04,ECL,Coal,G,UG,23.7738,86.7297
Jharkhand ,RAJPURA,0.21,ECL,Coal,G,OC,23.7586,86.7731
Jharkhand ,BARMURI,0.43,ECL,Coal,G,OC,23.7525,86.812
Jharkhand ,KAPASARA,0.4,ECL,Coal,G,OC,23.7585,86.7545
Jharkhand ,NIRSHA,0.19,ECL,Coal,G,OC,23.7873,86.7058
Jharkhand , CHAPAPUR -II ,0.18,ECL,Coal,G,Mixed,23.8049,86.6755
Jharkhand ,JOGIDIH ,0.04,BCCL,Coal,G,UG,23.8087,86.26037
Jharkhand ,KHARKAREE,0.02,BCCL,Coal,G,UG,23.7773,86.2391
Jharkhand ,MAHESHPUR,0.02,BCCL,Coal,G,UG,23.7864,86.2556
Jharkhand ,SALANPUR,0.07,BCCL,Coal,G,UG,23.8083,86.298
Jharkhand ,MUUDIDIH,0.01,BCCL,Coal,G,UG,23.74128,86.35299
Jharkhand ,BHAGABAND,0.02,BCCL,Coal,G,UG,23.7416,86.3861
Jharkhand ,"P, B. PROJECT",0.02,BCCL,Coal,G,UG,23.7553,86.3633
Jharkhand ,KB 10/12 PITS UG,0.003,BCCL,Coal,G,UG,23.7556,86.3759
Jharkhand ,BASTACOLLA,0.13,BCCL,Coal,G,UG,23.7634,86.4163
Jharkhand ,"BHOWRAH(NORTH)
COLLIERY",0.01,BCCL,Coal,G,UG,23.688,86.399
Jharkhand ,MOONIDIH PROJECT,0.53,BCCL,Coal,G,UG,23.741,86.3527
Jharkhand ,MURAIDIH,1.04,BCCL,Coal,G,OC,23.808,86.2389
Jharkhand ,AMALGAMATED BOCP MINE,1.65,BCCL,Coal,G,OC,23.75722302,86.79445561
Jharkhand ,"AMALGAMTED BLOCK-IV GOVINDPUR
COLLIERY(ABGC)",0.58,BCCL,Coal,G,OC,23.80105166,86.27696513
Jharkhand ,NICHITPUR,0.61,BCCL,Coal,G,OC,23.7917,86.3444
Jharkhand ,SENDRA BANSJORA,1.17,BCCL,Coal,G,OC,23.7875,86.3472
Jharkhand ,KANKANEE,0.38,BCCL,Coal,G,OC,23.775,86.3417
Jharkhand ,BANSDEOPUR,0.03,BCCL,Coal,G,OC,23.725,86.3625
Jharkhand ,E. BASSURIYA,0.54,BCCL,Coal,G,OC,23.7979,86.3694
Jharkhand ,"AMALGAMATED DHANSAR. INOUSTRY.
COLLIERY",0.83,BCCL,Coal,G,OC,23.77445398,86.41349435
Jharkhand ,ENA,1.67,BCCL,Coal,G,OC,23.7568,86.4094
Jharkhand ,KENDUADIH,0.13,BCCL,Coal,G,OC,23.7371,86.3744
Jharkhand ,ROCP,2.23,BCCL,Coal,G,OC,23.75592983,86.42099724
Jharkhand ,"AMALGAMATEO N.T.S.T. JEENAGORA
COLLIERY",2.54,BCCL,Coal,G,OC,23.7028,86.4403
Jharkhand ,AMALGAMATEO SUDAMDIH. PATHERDIH COLLIERY,0.18,BCCL,Coal,G,OC,23.667,86.432
Jharkhand ,BASANTIMATA-DAHIBARI COLLIERY,0.78,BCCL,Coal,G,OC,23.725,86.7465
Jharkhand ,AGKCC,0.16,BCCL,Coal,G,OC,23.80983994,86.29179139
Jharkhand ,PHULARITAND,2.68,BCCL,Coal,G,Mixed,23.782,86.2229
Jharkhand ,"NEW AKASH KINAREE COLLY
(NAKC)",1.2,BCCL,Coal,G,Mixed,23.8079,86.2843
Jharkhand ,"AMALGAMATED KESHALPUR
WEST MUDIDIH COLLIERY
(AKWMC)",4.22,BCCL,Coal,G,Mixed,23.8078,86.3221
Jharkhand ,TETULMARI,0.67,BCCL,Coal,G,Mixed,23.8034,86.345
Jharkhand ,"NEW GODHUR. KUSUNDA
COLLIERY",0.95,BCCL,Coal,G,Mixed,23.7885552,86.39191249
Jharkhand ,"GONDUDIH KHAS KUSUNDU
COLLY",0.24,BCCL,Coal,G,Mixed,23.804,86.3773
Jharkhand ,GOPALICHUCK,0.01,BCCL,Coal,G,Mixed,23.75483766,86.36436018
Jharkhand ,KUYA /KOCP,1.922,BCCL,Coal,G,Mixed,23.7363,86.4498
Jharkhand ,BHOWRA(SOUTH) COLLIERY,0.32,BCCL,Coal,G,Mixed,23.6821,86.4007
Jharkhand ,Jharia Division,1.243,TSL,Coal,P,OC,23.7079,86.4002
Jharkhand ,BHURKUNDA UG,0.04,CCL,Coal,G,UG,23.6523,85.3598
Jharkhand ,BHURKUNDA OC,0.68,CCL,Coal,G,OC,23.6572,85.3653
Jharkhand ,SAUNDA,0,CCL,Coal,G,UG,23.6625,85.3347
Jharkhand ,C. SAUNDA,0,CCL,Coal,G,UG,23.6716,85.3472
Jharkhand ,SIRKA,0,CCL,Coal,G,OC,23.7507,85.5833
Jharkhand ,SARUBERA/CHAINPUR,0.01,CCL,Coal,G,OC,23.71,85.5518
Jharkhand ,ARA,0,CCL,Coal,G,OC,23.7414,85.5555
Jharkhand ,KARMA,0.49,CCL,Coal,G,OC,23.6505,85.5659
Jharkhand ,PUNDI,0.03,CCL,Coal,G,OC,23.8236,85.5218
Jharkhand ,KUJU,0,CCL,Coal,G,OC,23.7474,85.5094
Jharkhand ,TOPA,1.2,CCL,Coal,G,OC,23.7379,85.4807
Jharkhand ,HESAGARA,0,CCL,Coal,G,OC,23.7602,85.505
Jharkhand ,KEDLA UG,0.02,CCL,Coal,G,UG,23.803,85.5951
Jharkhand ,LAIYO,0,CCL,Coal,G,UG,23.7903,85.6253
Jharkhand ,KEDLA OC,0.01,CCL,Coal,G,OC,23.7983,85.5792
Jharkhand ,PAREJ EAST,0.59,CCL,Coal,G,OC,23.7389,85.5389
Jharkhand ,JHARKHAND,0.91,CCL,Coal,G,OC,23.79961296,85.60716063
Jharkhand ,RAJRAPPA,1.4,CCL,Coal,G,OC,23.621,85.6878
Jharkhand ,West Bokaro (CAPTIVE),5.303,TSL,Coal,P,OC,23.7927473,85.55423096
Jharkhand ,URIMARI,0.01,CCL,Coal,G,UG,23.6939,85.3108
Jharkhand ,URIMARI ,1.04,CCL,Coal,G,OC,23.6931,85.3132
Jharkhand ,N. URIMARI(BIRSA),2.82,CCL,Coal,G,OC,23.6994,85.2975
Jharkhand ,GIDI 'A',0.11,CCL,Coal,G,OC,23.6833,85.3583
Jharkhand ,GIDI 'C' ,0.42,CCL,Coal,G,OC,23.6967,85.3958
Jharkhand ,RELIGARA,1.4,CCL,Coal,G,OC,23.8617,85.5569
Jharkhand ,TAPIN,0.5,CCL,Coal,G,OC,23.8306,85.5028
Jharkhand ,TAPIN SOUTH ,0.32,CCL,Coal,G,OC,23.8329,85.4729
Jharkhand ,Pakri Barwadih Coal Mine Project (CAPTIVE),9.42,NTPC ,Coal,G,OC,23.915,85.1708
Jharkhand ,Dumri Coal mine (CAPTIVE),0,HIL,Coal,P,OC,23.9049,85.0815
Jharkhand ,Bermo coal mine (CAPTIVE),0.047,DVC ,Coal,G,OC,23.7843,85.9634
Jharkhand ,GOVINDPUR,0.06,CCL,Coal,G,UG,23.80210466,85.87116633
Jharkhand ,KARO SPL,0,CCL,Coal,G,UG,23.471,85.5838
Jharkhand ,DHORI KHAS,0.1,CCL,Coal,G,UG,23.774,86.0144
Jharkhand ,KATHARA,0.13,CCL,Coal,G,OC,23.764,85.865
Jharkhand ,JARANGDIH,0.88,CCL,Coal,G,OC,23.795,86.4122
Jharkhand ,GOVINDPUR PH.II,1.84,CCL,Coal,G,OC,23.8056,85.8694
Jharkhand ,BOKARO,0.21,CCL,Coal,G,OC,23.79102905,85.97790654
Jharkhand ,KARO - I,3.27,CCL,Coal,G,OC,23.4702,85.5727
Jharkhand ,KARGALI,0,CCL,Coal,G,OC,23.7699,85.9904
Jharkhand ,AKK OCP,4.45,CCL,Coal,G,OC,23.7905,85.9198
Jharkhand ,A A D OCM,1.43,CCL,Coal,G,OC,23.76663448,85.98552098
Jharkhand ,SEL. DHORI,2.22,CCL,Coal,G,OC,23.775,85.5417
Jharkhand ,TARMI,0.46,CCL,Coal,G,OC,23.7681,85.5542
Jharkhand ,KABRIBAD,0,CCL,Coal,G,OC,24.1572,86.3006
Jharkhand ,GIRIDIH,0.13,CCL,Coal,G,OC,24.1914,86.2996
Jharkhand ,CHURI,0.48,CCL,Coal,G,UG,23.6786,85.0456
Jharkhand ,DAKRA,0.51,CCL,Coal,G,OC,23.6582,85.0166
Jharkhand ,KDH,0.59,CCL,Coal,G,OC,23.6779,84.9971
Jharkhand ,ROHINI,2.94,CCL,Coal,G,OC,23.6917,84.9903
Jharkhand ,PURNADIH,2.02,CCL,Coal,G,OC,23.7083,84.9861
Jharkhand ,PIPARWAR,4.32,CCL,Coal,G,OC,23.7225,85.0485
Jharkhand ,ASHOKA,10.52,CCL,Coal,G,OC,23.7297,84.9932
Jharkhand ,AMRAPALI,12.79,CCL,Coal,G,OC,23.8763,85.0183
Jharkhand ,MAGADH,5.21,CCL,Coal,G,OC,23.8413092,84.98830319
Jharkhand ,TETARIA KHAR,1.17,CCL,Coal,G,OC,23.809,84.8458
Jharkhand ,Sikni Coal Project (CAPTIVE),0.228,JSMDCL,Coal,SG,OC,23.7231,84.6125
Jharkhand ,Kathautia Open Cast Mine (CAPTIVE),0.798,HIL,Coal,P,OC,24.1325,84.0881
Jharkhand ,RAJHARA,0.01,CCL,Coal,G,OC,24.1642,84.0465
Jharkhand ,Panchwara North (CAPTIVE),0.1,WBPDCL,Coal,SG,OC,24.4764,87.4682
Jharkhand ,SIIVLONG OCP,0,ECL,Coal,G,OC,24.7425,87.44166667
Uttar Pradesh,DUDHICHUA,17.68,NCL,Coal,G,OC,24.1515,82.6929
Uttar Pradesh,BINA,7.5,NCL,Coal,G,OC,24.17389,82.7493
Uttar Pradesh,KAKARI,2,NCL,Coal,G,OC,24.1709,82.7562
Uttar Pradesh,KHADIA,13.18,NCL,Coal,G,OC,24.1351,82.7204
Uttar Pradesh,KRISHNASHILA,7,NCL,Coal,G,OC,24.1287,82.7625
Maharashtra ,NANDGAON INCL,0.08,WCL,Coal,G,UG,19.906,79.3111
Maharashtra ,MAHAKALI,0.08,WCL,Coal,G,UG,19.9468,79.3112
Maharashtra ,D. RAYATWARI,0.16,WCL,Coal,G,UG,19.9598,79.3109
Maharashtra ,MANNA INCLINE,0.09,WCL,Coal,G,UG,19.9132,79.3019
Maharashtra ,"HLC NO,1",0,WCL,Coal,G,UG,19.9129,79.3157
Maharashtra ,DURGAPUR,2.05,WCL,Coal,G,OC,20.0081,79.2989
Maharashtra ,PADMAPUR DEEP,1.08,WCL,Coal,G,OC,20.5,79.3417
Maharashtra ,BHATADI EXPANSION,1.47,WCL,Coal,G,OC,20.0708,79.2507
Maharashtra ,HINDUSTAN LALPETH,0,WCL,Coal,G,OC,19.9278,79.3119
Maharashtra ,BALLARPUR UG,0.1,WCL,Coal,G,UG,19.8417,79.3472
Maharashtra ,SASTI  UG,0.11,WCL,Coal,G,UG,19.81455976,79.31699585
Maharashtra ,BALLARPUR OC,0.62,WCL,Coal,G,OC,19.8336,79.3452
Maharashtra ,SASTI OC,1.69,WCL,Coal,G,OC,19.8125,79.3167
Maharashtra ,GOURI EXPANSION,0.63,WCL,Coal,G,OC,19.7874,79.2972
Maharashtra ,GOURI DEEP,0.6,WCL,Coal,G,OC,19.7741,79.2902
Maharashtra ,PAONI,0.86,WCL,Coal,G,OC,19.78217481,79.35826405
Maharashtra ,PAONI-Il,2.11,WCL,Coal,G,OC,19.79217481,79.36826405
Maharashtra ,NEW MAJRI - II (A) EXPN,2.5,WCL,Coal,G,OC,20.1157,79.0347
Maharashtra ,TELWASA,0,WCL,Coal,G,OC,20.0469,79.0817
Maharashtra ,"AMALG, YEKONA I& II",0.35,WCL,Coal,G,OC,20.2489,78.9458
Maharashtra ,NEW MAJRI UG TO OC,1.2,WCL,Coal,G,OC,20.129,79.0185
Maharashtra ,DHURWASA,0,WCL,Coal,G,OC,20.06007034,79.08010711
Maharashtra ,NAVIN KUNADA (A),0,WCL,Coal,G,OC,20.0871,79.0614
Maharashtra ,JUNA KUNADA,0,WCL,Coal,G,OC,20.0669,79.054
Maharashtra ,PENGANGA,6.3,WCL,Coal,G,OC,19.8147,79.245
Maharashtra ,MURPAR,0.05,WCL,Coal,G,UG,20.554,79.2928
Maharashtra ,NILJAI DEEP,3.92,WCL,Coal,G,OC,19.9957,79.0825
Maharashtra ,BELLORA-NAIGAON DEEP,0,WCL,Coal,G,OC,19.9597,79.0917
Maharashtra ,"MUNGOLI NIRGUDA EXTN, DEEP",4.12,WCL,Coal,G,OC,19.8822,79.1081
Maharashtra ,KOLGAON,0.00004,WCL,Coal,G,OC,19.1001,79.8568
Maharashtra ,RAJUR/BHANDEWADA INC,0.07,WCL,Coal,G,UG,20.11356,78.896
Maharashtra ,UKNI DEEP,1.38,WCL,Coal,G,OC,20.0292,79.0546
Maharashtra ,KOLARPIMPRI,0.78,WCL,Coal,G,OC,20.0833,79.0333
Maharashtra ,GHONSA,0.6,WCL,Coal,G,OC,19.9647,78.8326
Maharashtra ,JUNAD,0.47,WCL,Coal,G,OC,20.0438,79.0679
Maharashtra ,PIMPALGAON,0,WCL,Coal,G,OC,20.0458,79.0417
Maharashtra ,Marki Mangli I (CAPTIVE),0.3,TUML,Coal,P,OC,19.8532,78.7861
Maharashtra ,SILEWARA Colliery,0.12,WCL,Coal,G,OC,21.2990357,79.12341847
Maharashtra ,PATANSAONGI,0.07,WCL,Coal,G,OC,21.3238,79.041
Maharashtra ,SAONER-I,0.25,WCL,Coal,G,UG,21.3663,78.9275
Maharashtra ,SAONER.II,0.23,WCL,Coal,G,UG,21.3667,78.9087
Maharashtra ,SAONER-III,0.13,WCL,Coal,G,UG,21.3676,78.9086
Maharashtra ,WAGHODA,0,WCL,Coal,G,UG,21.3694,78.9272
Maharashtra ,KAMPTEE DEEP,0.8,WCL,Coal,G,OC,21.225,79.225
Maharashtra ,"AMALGAMATED GONOEGAON
GHATROHANA",3.5,WCL,Coal,G,OC,21.26629731,79.19242476
Maharashtra ,INDER UG to OC,0.9,WCL,Coal,G,OC,21.2535,79.2192
Maharashtra ,BHANEGAON,0.75,WCL,Coal,G,OC,21.2685,79.1574
Maharashtra ,SINGHORI,1.12,WCL,Coal,G,OC,21.2657,79.1622
Maharashtra ,ADASA UG TO OC,0.004,WCL,Coal,G,OC,21.3399,78.9538
Maharashtra ,"UMRER EXPN. (AMB RIVER
DIVERSION PHASE - IV)",4.85,WCL,Coal,G,OC,20.8658,79.2839
Maharashtra ,MAKARDHOKRA.I,2,WCL,Coal,G,OC,20.8565,79.2544
Maharashtra ,MAKARDHOKRA-III / DINESH,4.14,WCL,Coal,G,OC,20.8764,79.2235
Maharashtra ,GOKUL,1.87,WCL,Coal,G,OC,20.6726,79.2972
Maharashtra ,Belgaon (CAPTIVE),0.27,SISCL,Coal,P,OC,20.8336,79.337
Madhya Pradesh,AMELIA NORTH MINE ,2.8,JPVL,Coal,G,OC,24.1346,82.4264
Madhya Pradesh,JHINGURDA,2.63,NCL,Coal,G,OC,24.1917,82.72083
Madhya Pradesh,JAYANT,19.53,NCL,Coal,G,OC,24.151,82.6579
Madhya Pradesh,AMLOHRI,13.47,NCL,Coal,G,OC,24.1417,82.5917
Madhya Pradesh,NIGAHI,19.59,NCL,Coal,G,OC,24.1539,82.6322
Madhya Pradesh,BLOCK - B,5.47,NCL,Coal,G,OC,24.1756,82.565
Madhya Pradesh,Mohar & Moher-Amlori Extension Coal Mine,18.699,Sasan Power (Reliance Power Limited),Coal,P,OC,24.1358,82.5915
Madhya Pradesh,CHHATARPUR-I,0.37,WCL,Coal,G,UG,22.15,78.1
Madhya Pradesh,CHHATARPUR.II,0.08,WCL,Coal,G,UG,22.1417,78.1
Madhya Pradesh,SHOBHAPUR,0.17,WCL,Coal,G,UG,22.15,78.125
Madhya Pradesh,SARNI,0.13,WCL,Coal,G,UG,22.1167,78.15
Madhya Pradesh,TAWA.I,0.43,WCL,Coal,G,UG,22.1458,78.1667
Madhya Pradesh,TAWA-II,0.32,WCL,Coal,G,UG,22.1542,78.1917
Madhya Pradesh,NEHERIYA,0.33,WCL,Coal,G,UG,22.2451,78.9817
Madhya Pradesh,MATHANI,0.12,WCL,Coal,G,UG,22.2389,78.9311
Madhya Pradesh,JAMUNIA,0,WCL,Coal,G,UG,22.2911,78.9667
Madhya Pradesh,VISHNUPURI-II,0.1,WCL,Coal,G,UG,22.199,78.8626
Madhya Pradesh,MAHADEVPURI,0.1,WCL,Coal,G,UG,22.1806,78.7698
Madhya Pradesh,NEW SETHIA,0.4,WCL,Coal,G,OC,22.2153,78.8501
Madhya Pradesh,CHHINDA,0,WCL,Coal,G,OC,22.2083,78.8333
Madhya Pradesh,BARKUI,0,WCL,Coal,G,OC,22.1958,78.6875
Madhya Pradesh,URDHAN,0,WCL,Coal,G,OC,22.2786,78.9578
Madhya Pradesh,SHIVPURI,0,WCL,Coal,G,OC,22.2036,78.8901
Madhya Pradesh,TANDSI ,0.18,WCL,Coal,G,UG,22.1857,78.3235
Madhya Pradesh,NANDAN.II,0,WCL,Coal,G,UG,22.2131,78.4357
Madhya Pradesh,"GHORAWARI MINE NO.II
(BHARAT)",0.44,WCL,Coal,G,OC,21.9857854,79.31127565
Madhya Pradesh,"GHORAWARI
NO.1(.THARNA UG &
GHORWARI 16/17 OC)",0.2,WCL,Coal,G,Mixed,21.8957854,79.28112756
Madhya Pradesh,"MOHAN
(MOHAN/MAURT UG &
MOHAN OC)",0.44,WCL,Coal,G,Mixed,22.1793327,78.67759236
Madhya Pradesh,SIAL GHOGRI MINE  (CAPTIVE),0.103,"RCCPL Ltd, a subsidiary of Birla Corp",Coal,P,OC,22.1607,78.6994
Chhattisgarh,CHURCHA RO,1.59,SECL,Coal,G,UG,23.3342,82.52
Chhattisgarh,KATKONA 1&2,0.25,SECL,Coal,G,UG,23.3596,82.6808
Chhattisgarh,KATKONA 3&4,0,SECL,Coal,G,UG,23.3567,82.725
Chhattisgarh,BARTUNGA HILL,0.16,SECL,Coal,G,UG,23.174,82.335
Chhattisgarh,KURASIA,0.33,SECL,Coal,G,UG,23.1783,82.3682
Chhattisgarh,NCPH R6 NEW,0.35,SECL,Coal,G,UG,23.1944,82.3489
Chhattisgarh,WEST JKD,0.17,SECL,Coal,G,UG,23.1972,82.1472
Chhattisgarh,HALDIBARI,0.66,SECL,Coal,G,UG,23.2232,82.1501
Chhattisgarh,CHIRIMIRI  OC,1.07,SECL,Coal,G,OC,23.1795,82.3384
Chhattisgarh,PANDAVPARA,0.35,SECL,Coal,G,UG,23.3501,82.7288
Chhattisgarh,JHILIMILI,0.34,SECL,Coal,G,UG,23.3547,82.7301
Chhattisgarh,KUMDA 7&8,0.08,SECL,Coal,G,UG,23.2074,83.0056
Chhattisgarh,BALRAMPUR,0.11,SECL,Coal,G,UG,23.6169,83.6191
Chhattisgarh,KETKI,0,SECL,Coal,G,UG,23.1385,82.8786
Chhattisgarh,REHAR,0.13,SECL,Coal,G,UG,23.1063,82.9368
Chhattisgarh,GAYATRI,0.25,SECL,Coal,G,UG,23.1097,82.9051
Chhattisgarh,BISRAMPUR,0,SECL,Coal,G,OC,23.1847941,82.97906321
Chhattisgarh,AMGAON,0,SECL,Coal,G,OC,23.1367,82.83
Chhattisgarh,AMERA,0,SECL,Coal,G,OC,23.0617,83.0433
Chhattisgarh,Parsa East and Kanta Basan (CAPTIVE),15,RRVUNL,Coal,SG,OC,22.8238,82.8124
Chhattisgarh,MAHAN-II,2,SECL,Coal,G,OC,23.3654,83.2264
Chhattisgarh,JAGANNATHPUR,0.09,SECL,Coal,G,OC,23.3704,83.215
Chhattisgarh,BHATGAON,0.42,SECL,Coal,G,UG,23.3667,83
Chhattisgarh,MAHAMAYA,0.04,SECL,Coal,G,UG,23.3815,83.0235
Chhattisgarh,SHIWANI,0.31,SECL,Coal,G,UG,23.3498,83.0743
Chhattisgarh,NAWAPARA,0.15,SECL,Coal,G,UG,23.2907,83.0856
Chhattisgarh,MAHAN,0.17,SECL,Coal,G,OC,23.3861,83.0183
Chhattisgarh,VIJAY WEST,0.5,SECL,Coal,G,UG,22.8542,82.3211
Chhattisgarh,RANI ATARI,0.05,SECL,Coal,G,UG,22.8647,82.2989
Chhattisgarh,RAJGAMAR 4&5,0.13,SECL,Coal,G,UG,22.3708,82.8681
Chhattisgarh,SURAKACHHAR MAIN,0.19,SECL,Coal,G,UG,22.365,82.6306
Chhattisgarh,SURAKACHHAR 3&4,0.1,SECL,Coal,G,UG,22.368,82.6315
Chhattisgarh,BALGI,0.12,SECL,Coal,G,UG,22.3672,82.6425
Chhattisgarh,DHELWADIH,0.2,SECL,Coal,G,UG,22.4616,82.5634
Chhattisgarh,SINGHALI,0.38,SECL,Coal,G,UG,22.4406,82.5679
Chhattisgarh,BAGDEVA,0.39,SECL,Coal,G,UG,22.3863,82.535
Chhattisgarh,MANIKPUR,4.9,SECL,Coal,G,OC,22.3208,82.725
Chhattisgarh,SARAIPALLI,0,SECL,Coal,G,OC,22.37316576,82.32282999
Chhattisgarh,KUSMUNDA,42.33,SECL,Coal,G,OC,22.3067,82.6732
Chhattisgarh,GEVRA OC,45,SECL,Coal,G,OC,22.3308,82.5958
Chhattisgarh,DIPKA,25.18,SECL,Coal,G,OC,22.3225,82.5363
Chhattisgarh,Chotia opencast coal mine (CAPTIVE),1,BALCO (Vedanta Group),Coal,P,OC,22.8556,82.5372
Chhattisgarh,CHHAL ,1.47,SECL,Coal,G,OC,22.0926,83.1278
Chhattisgarh,BAROUD,2.7,SECL,Coal,G,OC,22.2678,83.3457
Chhattisgarh,JAMPALI,2.24,SECL,Coal,G,OC,22.2843,83.3025
Chhattisgarh,BIJARI,1.65,SECL,Coal,G,OC,20.1528,83.2133
Chhattisgarh,GARE PALMA IV/1 (CAPTIVE),0.76,SECL,Coal,G,OC,22.1125,83.5469
Chhattisgarh,GARE PALMA IV/2&3 (CAPTIVE),2.66,SECL,Coal,G,OC,22.1199,83.5362
Chhattisgarh,GARE PALMA V/4 (CAPTIVE),0.548,HIL,Coal,P,OC,22.15,83.5415
Chhattisgarh,GARE PALMA IV/5 (CAPTIVE),0.126,HIL,Coal,P,OC,22.1621,83.5321
Chhattisgarh,Gare Palma IV/8 (CAPTIVE),0.407,AMBUJA,Coal,P,OC,22.1708,83.4944
Chhattisgarh,Talaipalli coal mine,0.19,NTPC,Coal,P,OC,22.1765,83.3551
Madhya Pradesh,RAJNAGAR R.O.,0.27,SECL,Coal,G,UG,23.1897,82.132
Madhya Pradesh,JHIRIA,0.22,SECL,Coal,G,UG,23.1523,82.1511
Madhya Pradesh,BIJURI,0.22,SECL,Coal,G,UG,23.2588,82.1216
Madhya Pradesh,BEHERABAND,0.56,SECL,Coal,G,UG,23.3,82.1
Madhya Pradesh,KURJA/ SHEETALDHARA,0.33,SECL,Coal,G,UG,23.2398,82.1132
Madhya Pradesh,KAPILDHARA,0.39,SECL,Coal,G,UG,23.1774699,82.19694531
Madhya Pradesh,RAJNAGAR,0,SECL,Coal,G,OC,23.2117,82.1269
Madhya Pradesh,JAMUNA 1 & 2,0.15,SECL,Coal,G,UG,23.1681,81.9424
Madhya Pradesh,JAMUNA 9 &10,0.19,SECL,Coal,G,UG,23.1631,81.9324
Madhya Pradesh,MEERA,0.14,SECL,Coal,G,UG,23.1863,81.9797
Madhya Pradesh,BARTARAI / AMADAND,0.28,SECL,Coal,G,UG,23.1368,82.0657
Madhya Pradesh,BHADRA 7 / 8,0.08,SECL,Coal,G,UG,23.1889,81.9324
Madhya Pradesh,AMADAND,1.64,SECL,Coal,G,OC,23.1436,82.0579
Madhya Pradesh,DHANPURI,1.15,SECL,Coal,G,OC,23.1541,81.5843
Madhya Pradesh,RAJENDRA,0.24,SECL,Coal,G,UG,23.1531,81.491
Madhya Pradesh,BANGWAR ,0.65,SECL,Coal,G,UG,23.1542,81.5361
Madhya Pradesh,DAMINI,0.22,SECL,Coal,G,UG,23.145,81.4633
Madhya Pradesh,KHAIRAHA,0.82,SECL,Coal,G,UG,23.1543,81.4589
Madhya Pradesh,SHARDA HIGHWALL,0.84,SECL,Coal,G,UG,23.2084,81.5896
Madhya Pradesh,AMLAI,1.31,SECL,Coal,G,OC,23.1502,81.5514
Madhya Pradesh,PALI   UG,0.13,SECL,Coal,G,UG,23.5863,80.7501
Madhya Pradesh,NOWROZABAD(W),0.06,SECL,Coal,G,UG,23.3588,80.989
Madhya Pradesh,PINOURA,0.16,SECL,Coal,G,UG,23.339,80.936
Madhya Pradesh,UMARIA,0.15,SECL,Coal,G,UG,23.525,80.8333
Madhya Pradesh,PIPARIA,0.07,SECL,Coal,G,UG,23.5238,80.8622
Madhya Pradesh,VINDHYA,0.16,SECL,Coal,G,UG,23.3356,80.9058
Madhya Pradesh,KANCHAN OC,0.14,SECL,Coal,G,OC,23.3419,80.8626
Orissa,TALCHER,0,MCL,Coal,G,UG,20.91234,85.114509
Orissa,NANDIRA,0.085,MCL,Coal,G,UG,20.92738,85.124509
Orissa,DEULBERA,0,MCL,Coal,G,UG,20.9513,85.2069
Orissa,HANDIDHUA,0,MCL,Coal,G,UG,20.94553,85.19856
Orissa,BHARATPUR,4.781,MCL,Coal,G,OC,20.9604,85.1264
Orissa,CHHENDIPARA,0,MCL,Coal,G,OC,21.0758,84.8769
Orissa,HINGULA,6.582,MCL,Coal,G,OC,20.9531,85.0315
Orissa,BALRAM,5.234,MCL,Coal,G,OC,20.9514,85.0627
Orissa,JAGANNATH,3.453,MCL,Coal,G,OC,20.9578,85.1424
Orissa,BHUBANESWARI,28,MCL,Coal,G,OC,20.9725,85.1732
Orissa,ANANTA,10.932,MCL,Coal,G,OC,20.94429,85.16593
Orissa,LINGRAJ,14.007,MCL,Coal,G,OC,20.96289,85.21331
Orissa,KANIHA,7.533,MCL,Coal,G,OC,21.0791,85.042
Orissa,LAJKURA,2.84,MCL,Coal,G,OC,21.3214,83.9007
Orissa,SAMALESWARI,4.611,MCL,Coal,G,OC,21.3014,83.9032
Orissa,BELPAHAR,7.51,MCL,Coal,G,OC,21.75,83.8417
Orissa,LAKHANPUR,21,MCL,Coal,G,OC,21.7451,83.8401
Orissa,LILARI,0,MCL,Coal,G,OC,21.7786,83.8568
Orissa,MINE NO. 1&2,0.314,MCL,Coal,G,UG,21.8331,83.9183
Orissa,MINE NO.3,0.041,MCL,Coal,G,UG,21.8432,83.9088
Orissa,HIRAKHAND BUNDIA INCLINE,0.395,MCL,Coal,G,UG,21.7819,83.9151
Orissa,MINE NO.4,0,MCL,Coal,G,UG,21.8408,83.9154
Orissa,Dulanga coal mine (CAPTIVE),1.54,NTPC,Coal,G,OC,21.4347,83.7985
Orissa,KULDA,13.627,MCL,Coal,G,OC,22.034,83.7421
Orissa,GARJANBAHAL,7.592,MCL,Coal,G,OC,22.0108,83.7576
Orissa,BASUNDHARA (W),1.82,MCL,Coal,G,OC,22.0699,83.6892
Orissa,Talabira II,0.00001,NLC Ltd,Coal,G,OC,21.7344,83.9917
Orissa,Talabira III,0.00001,NLC Ltd,Coal,G,OC,21.7372,83.9921
Orissa,Talabira I (CAPTIVE),0.27,GMR Group,Coal,P,OC,21.7299,83.9958
Assam,Tipong,0,NEC,Coal,G,UG,27.3039,95.8556
Assam,Tirap,0.45,NEC,Coal,G,OC,27.2924,95.7904
Assam,Tikak,0.07,NEC,Coal,G,OC,27.2836,95.7334
Tamil Nadu,Mine I & Expansion ,7.98,NLC Ltd,Lignite,G,OC,11.5709,79.50805
Tamil Nadu,Mine I A,2.97,NLC Ltd,Lignite,G,OC,11.57352,79.51781
Tamil Nadu,Mine II & Expansion ,12.51,NLC Ltd,Lignite,G,OC,11.520268,79.475537
Gujarat,Tadkeshwar Lignite Mine (CAPTIVE),1.27,GMDCL,Lignite,SG,OC,21.3403,73.0847
Gujarat,Vastan Lignite (CAPTIVE),0.28,GIPCL,Lignite,SG,OC,21.3825,73.0906
Gujarat,Mangrol-Valia Lignite Mine (CAPTIVE),3.06,GIPCL,Lignite,SG,OC,21.4167,73.1
Gujarat,Rajpardi Lignite Mine (Amod G - 19 Extension Lignite Mine) (CAPTIVE),0.92,GMDCL,Lignite,SG,OC,21.7033,73.2172
Gujarat,Panandhro Lignite Mine (CAPTIVE),0.71,GMDCL,Lignite,SG,OC,23.6961,68.786
Gujarat,Mata No Madh Lignite Mine (CAPTIVE),2.85,GMDCL,Lignite,SG,OC,23.29,68.59
Gujarat,Umarsar Lignite Mine (CAPTIVE),1.36,GMDCL,Lignite,SG,OC,23.42,68.53
Gujarat,Bhavnagar Lignite Mine (Surkha (North) Lignite Mine) (CAPTIVE),0.55,GMDCL,Lignite,SG,OC,21.2643,72.163
Gujarat,KHADSALIYA LIGNITE MINE (CAPTIVE),0.06,GHCL Limited,Lignite,P,OC,21.6259,72.2397
Rajasthan,Kapurdi Lignite Block (CAPTIVE),4.5,BLMCL,Lignite,SG,OC,25.056,71.02122
Rajasthan,Jalipa Lignite Block (CAPTIVE),0.91,BLMCL,Lignite,SG,OC,25.5138,71.2436
Rajasthan,Giral mine (CAPTIVE),0.19,RSMML,Lignite,SG,OC,26.0124,71.1347
Rajasthan,Sonari (CAPTIVE),0.29,RSMML,Lignite,SG,OC,25.5709,71.1542
Rajasthan,MATASUKH & KASNAU (CAPTIVE),0.29,RSMML,Lignite,SG,OC,27.03,74.024
Rajasthan,Gurha East Lignite Mine (CAPTIVE),0.67,VS Lignite Power Private Limited,Lignite,P,OC,27.52314,72.51259
Rajasthan,Barsingsar Mine,1.35,NLC Ltd,Lignite,SG,OC,27.4859,73.112
Telangana ,Tadicherla  (CAPTIVE),1.673,TSPGCL,Coal,SG,OC,18.61625,79.72295
Telangana ,GK OC,3.995176,SCCL,Coal,SG,OC,17.2615,80.3738
Telangana ,JVR OC-II,4.828857,SCCL,Coal,SG,OC,17.095459,80.454338
Telangana ,JVR OC,3.813674,SCCL,Coal,SG,OC,17.1301,80.492
Telangana ,KISTARAM OC,0.192418,SCCL,Coal,SG,OC,17.2265,80.7865
Telangana ,KOYAGUDEM OC-II,3.5,SCCL,Coal,SG,OC,17.6258,80.4845
Telangana ,JK-5 OC,3.376755,SCCL,Coal,SG,OC,17.5783,80.3225
Telangana ,KOYAGUDEM OC-III,0,SCCL,Coal,SG,OC,17.6265,80.4926
Telangana ,PK - OC-2,5.021738,SCCL,Coal,SG,OC,17.9406,80.772
Telangana ,PK OC-4,2.980751,SCCL,Coal,SG,OC,17.9391,80.7784
Telangana ,MNG OC,1.8,SCCL,Coal,SG,OC,17.976,80.8346
Telangana ,PVK-5,0.210019,SCCL,Coal,SG,UG,17.4983,80.6706
Telangana ,VK 7 INC,0.416341,SCCL,Coal,SG,UG,17.4793,80.6792
Telangana ,21 INC,0.000972,SCCL,Coal,SG,UG,17.5949,80.2244
Telangana ,KONDAPURAM,0.019911,SCCL,Coal,SG,UG,17.9481,80.75
Telangana ,KTK 1-1A,0.338534,SCCL,Coal,SG,OC,18.461,79.8605
Telangana ,KTK 5 INC,0.335209,SCCL,Coal,SG,OC,18.5126,79.7622
Telangana ,KTK-6 INC,0.191889,SCCL,Coal,SG,OC,18.4623,79.859
Telangana ,KTK OC-II,1.269485,SCCL,Coal,SG,OC,18.4568,79.8572
Telangana ,KTK 8&8A,0.278343,SCCL,Coal,SG,OC,18.4639,79.8611
Telangana ,KTK OC- III,0,SCCL,Coal,SG,OC,18.355,79.9017
Telangana ,KHAIRAGURA OCP,2.602655,SCCL,Coal,SG,OC,19.2458,79.2854
Telangana ,BPA.OC-2-EXTN,0.406065,SCCL,Coal,SG,OC,19.2125,79.3547
Telangana ,DORLI OCP-I,0.018178,SCCL,Coal,SG,OC,19.2785,79.2174
Telangana ,RK OCP-I,1.969656,SCCL,Coal,SG,OC,18.92721975,79.4894936
Telangana ,KK OC,1.750009,SCCL,Coal,SG,OC,19.01,79.4651
Telangana ,SRP OC-II,2.969306,SCCL,Coal,SG,OC,18.8278,79.5042
Telangana ,IK OC,0,SCCL,Coal,SG,OC,18.8208,79.4917
Telangana ,KASIPET2,0.042699,SCCL,Coal,SG,UG,19.0571,79.422
Telangana ,RK 5 INC,0.320156,SCCL,Coal,SG,UG,18.8894,79.5081
Telangana ,RK 6 INC,0.342369,SCCL,Coal,SG,UG,18.8724,79.5174
Telangana ,RK 7 INC,0.401343,SCCL,Coal,SG,UG,18.8717,79.5289
Telangana ,RK 8 INC,0.130816,SCCL,Coal,SG,UG,18.8958,79.4917
Telangana ,RK - NT,0.400378,SCCL,Coal,SG,UG,18.8564,79.5325
Telangana ,SRP 1 INC,0.161502,SCCL,Coal,SG,UG,18.8576,79.4994
Telangana ,SRP 3&3A INC,0.283302,SCCL,Coal,SG,UG,18.8596,79.5012
Telangana ,IK 1A INC,0.225118,SCCL,Coal,SG,UG,18.8063,79.5208
Telangana ,ALP,2.060188,SCCL,Coal,SG,UG,18.6648,79.579
Telangana ,SK,0.091051,SCCL,Coal,SG,UG,19.0508,79.5333
Telangana ,KK 1 INC,0.130566,SCCL,Coal,SG,UG,18.9915,79.4796
Telangana ,KK 5 INC,0.14425,SCCL,Coal,SG,UG,18.8278,79.4833
Telangana ,KASIPET,0.172991,SCCL,Coal,SG,UG,19.0203,79.4397
Telangana ,RK 1A INC,0.115257,SCCL,Coal,SG,UG,18.9507,79.4879
Telangana ,GDK 5 OC,0,SCCL,Coal,SG,OC,18.7425,79.5577
Telangana ,MEDIPALLI OC,1.084318,SCCL,Coal,SG,OC,18.7993,79.4652
Telangana ,MEDPL HW,0.165635,SCCL,Coal,SG,OC,18.60610194,79.38994198
Telangana ,RG OC-3,4.234619,SCCL,Coal,SG,OC,18.7111,79.5158
Telangana ,RG OC-III EXT PH-2,2.562118,SCCL,Coal,SG,OC,18.6976,79.5352
Telangana ,RG OC-2,2.368628,SCCL,Coal,SG,OC,18.6782,79.5406
Telangana ,RG OC-I LEP,4.634942,SCCL,Coal,SG,OC,18.6683,79.5542
Telangana ,Vakilpalli Mine,0.14763,SCCL,Coal,SG,UG,18.4014,79.3321
Telangana ,GDK 7 (LEP),0.198926,SCCL,Coal,SG,UG,18.4316,79.3842
Telangana ,GDK 1&3 INC,0.214798,SCCL,Coal,SG,UG,18.0452,79.3025
Telangana ,GDK 2&2A INC,0.283656,SCCL,Coal,SG,UG,18.4221,79.3111
Telangana ,GDK 5 INC,0.018202,SCCL,Coal,SG,UG,18.4545,79.3546
Telangana ,GDK 11 INC,0.804029,SCCL,Coal,SG,UG,18.4161,79.3258
Telangana ,GDK 10 INC,0.019551,SCCL,Coal,SG,UG,18.3915,79.3345
